City_ID,City,Lat,Lng,Max Temp,Humidity,Cloudiness,Wind Speed,Country,Date
0,invercargill,-46.4,168.35,45.05,78,100,14.83,NZ,2023-07-27
1,adamstown,-25.066,-130.1015,67.39,61,29,12.01,PN,2023-07-27
2,setubal,38.5244,-8.8882,65.17,90,6,10.33,PT,2023-07-27
3,mejit,10.2753,170.8646,82.63,80,100,16.35,MH,2023-07-27
4,beitbridge,-22.2167,30.0,55.83,70,6,3.51,ZW,2023-07-27
5,puerto natales,-51.7236,-72.4875,28.69,93,100,2.51,CL,2023-07-27
6,bilibino,68.0546,166.4372,52.43,69,100,3.6,RU,2023-07-27
7,georgetown,5.4112,100.3354,86.02,83,20,3.44,MY,2023-07-27
8,port lincoln,-34.7333,135.8667,66.06,57,96,20.47,AU,2023-07-27
9,macapa,0.0389,-51.0664,76.98,100,75,3.44,BR,2023-07-27
10,ushuaia,-54.8,-68.3,33.46,60,75,4.61,AR,2023-07-27
11,waitangi,-43.9535,-176.5597,45.82,88,88,1.99,NZ,2023-07-27
12,lompoc,34.6391,-120.4579,58.91,87,100,9.22,US,2023-07-27
13,uturoa,-16.7333,-151.4333,78.44,83,48,7.99,PF,2023-07-27
14,saudarkrokur,65.7461,-19.6394,44.87,90,14,4.38,IS,2023-07-27
15,thompson,55.7435,-97.8558,55.56,88,100,3.44,CA,2023-07-27
16,kelibia,36.8476,11.0939,75.45,73,0,4.61,TN,2023-07-27
17,khorostkiv,49.2111,25.9217,55.49,89,100,16.67,UA,2023-07-27
18,sharm el-sheikh,27.8518,34.305,87.94,40,0,8.05,EG,2023-07-27
19,port-aux-francais,-49.35,70.2167,40.14,75,93,34.87,TF,2023-07-27
20,taunggyi,20.7833,97.0333,72.63,73,97,7.02,MM,2023-07-27
21,longyearbyen,78.2186,15.6401,51.64,71,40,4.61,SJ,2023-07-27
22,enewetak,11.3474,162.3373,83.34,77,100,12.95,MH,2023-07-27
23,lihue,21.9789,-159.3672,81.14,71,40,16.11,US,2023-07-27
24,hammerfest,70.6634,23.6821,52.25,87,100,9.22,NO,2023-07-27
25,sines,37.9562,-8.8698,62.29,92,3,11.61,PT,2023-07-27
26,coquimbo,-29.9533,-71.3436,55.13,87,75,5.75,CL,2023-07-27
27,kilindoni,-7.9139,39.6668,77.31,76,85,16.73,TZ,2023-07-27
28,lorengau,-2.0226,147.2712,83.88,80,62,12.66,PG,2023-07-27
29,ribeira grande,38.5167,-28.7,72.77,96,56,8.01,PT,2023-07-27
30,vilyuchinsk,52.9306,158.4028,73.26,83,99,7.14,RU,2023-07-27
31,nabire,-3.3667,135.4833,87.76,61,78,5.08,ID,2023-07-27
32,puerto ayora,-0.7393,-90.3518,76.55,92,78,4.0,EC,2023-07-27
33,klaksvik,62.2266,-6.589,47.32,88,77,7.9,FO,2023-07-27
34,anadyr,64.75,177.4833,53.01,87,75,11.18,RU,2023-07-27
35,urucui,-7.2294,-44.5561,74.91,47,25,5.61,BR,2023-07-27
36,cadale,2.7603,46.3222,76.95,81,100,18.16,SO,2023-07-27
37,papatowai,-46.5619,169.4708,43.7,83,100,20.15,NZ,2023-07-27
38,mareeba,-17.0,145.4333,75.43,74,70,9.42,AU,2023-07-27
39,tolanaro,-25.0319,46.9987,62.67,82,75,4.61,MG,2023-07-27
40,punta arenas,-53.15,-70.9167,30.34,80,23,8.14,CL,2023-07-27
41,west island,-12.1568,96.8225,76.98,78,40,23.02,CC,2023-07-27
42,bethel,41.3712,-73.414,72.46,82,0,9.22,US,2023-07-27
43,lebu,-37.6167,-73.65,47.55,86,93,1.45,CL,2023-07-27
44,lazaro cardenas,17.9583,-102.2,81.77,78,79,4.54,MX,2023-07-27
45,pishin,30.5803,66.9961,80.28,50,5,1.54,PK,2023-07-27
46,talakan,50.3167,130.3667,87.44,41,42,2.89,RU,2023-07-27
47,remire-montjoly,4.9167,-52.2667,77.04,94,70,0.0,GF,2023-07-27
48,puerto lempira,15.2667,-83.7667,79.36,81,75,5.95,HN,2023-07-27
49,aljezur,37.3191,-8.8033,63.55,92,79,12.48,PT,2023-07-27
50,yellowknife,62.456,-114.3525,73.92,35,20,12.66,CA,2023-07-27
51,howrah,22.5892,88.3103,86.0,84,40,9.22,IN,2023-07-27
52,edinburgh of the seven seas,-37.0676,-12.3116,51.51,50,64,21.5,SH,2023-07-27
53,jamestown,42.097,-79.2353,68.97,96,100,9.22,US,2023-07-27
54,misratah,32.3754,15.0925,81.1,69,0,12.66,LY,2023-07-27
55,tura,25.5198,90.2201,77.83,94,99,5.95,IN,2023-07-27
56,mawu,29.5923,107.3139,75.07,93,100,1.1,CN,2023-07-27
57,magadan,59.5667,150.8,61.54,98,100,4.65,RU,2023-07-27
58,mumbwa,-14.9783,27.0619,54.9,80,0,7.18,ZM,2023-07-27
59,mount gambier,-37.8333,140.7667,61.29,56,46,11.3,AU,2023-07-27
60,wewak,-3.5534,143.6268,84.24,71,66,4.7,PG,2023-07-27
61,pass christian,30.3158,-89.2475,80.49,78,0,0.0,US,2023-07-27
62,shelton,41.3165,-73.0932,74.75,70,0,5.75,US,2023-07-27
63,kandira,41.0736,30.1746,68.18,79,17,12.03,TR,2023-07-27
64,vorgashor,67.5833,63.95,58.82,84,99,3.94,RU,2023-07-27
65,itaituba,-4.2761,-55.9836,77.0,58,31,0.74,BR,2023-07-27
66,fort st. john,56.2499,-120.8529,58.89,94,100,9.22,CA,2023-07-27
67,fort bragg,35.139,-79.006,80.71,79,0,8.05,US,2023-07-27
68,iskateley,67.6803,53.1512,67.98,60,88,4.52,RU,2023-07-27
69,port mathurin,-19.6833,63.4167,74.77,79,31,17.96,MU,2023-07-27
70,olonkinbyen,70.9221,-8.7187,40.48,89,100,10.22,SJ,2023-07-27
71,utrik,11.2278,169.8474,81.9,82,100,17.36,MH,2023-07-27
72,hirara,24.8,125.2833,88.07,79,75,25.32,JP,2023-07-27
73,suva,-18.1416,178.4415,67.48,94,100,9.22,FJ,2023-07-27
74,santa cruz,-17.8,-63.1667,67.46,60,75,20.71,BO,2023-07-27
75,monrovia,6.3005,-10.7969,76.77,90,72,4.27,LR,2023-07-27
76,blackmans bay,-43.0167,147.3167,55.45,69,100,5.44,AU,2023-07-27
77,bredasdorp,-34.5322,20.0403,47.59,90,0,4.63,ZA,2023-07-27
78,hawaiian paradise park,19.5933,-154.9731,76.6,92,40,9.22,US,2023-07-27
79,noyabrsk,63.1994,75.4507,70.56,66,8,9.66,RU,2023-07-27
80,george town,5.4112,100.3354,86.02,83,20,3.44,MY,2023-07-27
81,nuku'alofa,-21.1333,-175.2,71.94,60,75,6.91,TO,2023-07-27
82,happy valley-goose bay,53.3168,-60.3315,66.51,63,75,3.44,CA,2023-07-27
83,ilulissat,69.2167,-51.1,46.42,71,0,3.44,GL,2023-07-27
84,forked river,39.8398,-74.1901,74.73,82,3,1.99,US,2023-07-27
85,krasnozerskoye,53.9828,79.2374,77.09,39,100,5.82,RU,2023-07-27
86,lionel town,17.8101,-77.2406,85.89,86,91,3.58,JM,2023-07-27
87,atafu village,-8.5421,-172.5159,83.44,75,99,18.19,TK,2023-07-27
88,ust-nera,64.5667,143.2,59.13,52,94,6.58,RU,2023-07-27
89,guider,9.9342,13.9486,75.92,73,95,2.89,CM,2023-07-27
90,stanley,54.868,-1.6985,55.42,92,75,2.3,GB,2023-07-27
91,kodiak,57.79,-152.4072,56.71,82,75,10.36,US,2023-07-27
92,badger,64.8,-147.5333,82.89,49,75,0.0,US,2023-07-27
93,avarua,-21.2078,-159.775,69.85,88,75,6.91,CK,2023-07-27
94,kloulklubed,7.0419,134.2556,79.3,84,100,23.98,PW,2023-07-27
95,sungailiat,-1.85,106.1333,86.02,67,57,14.25,ID,2023-07-27
96,chonchi,-42.6128,-73.8092,46.11,99,100,3.33,CL,2023-07-27
97,achinsk,56.2694,90.4993,74.95,51,4,4.85,RU,2023-07-27
98,puerto baquerizo moreno,-0.9,-89.6,75.24,80,90,12.5,EC,2023-07-27
99,zhangatas,43.5667,69.75,90.28,25,68,16.91,KZ,2023-07-27
100,grytviken,-54.2811,-36.5092,33.67,99,100,12.1,GS,2023-07-27
101,huaraz,-9.5333,-77.5333,52.54,65,53,2.01,PE,2023-07-27
102,lufilufi,-13.8745,-171.5986,81.79,78,94,15.73,WS,2023-07-27
103,aasiaat,68.7098,-52.8699,36.39,95,29,8.03,GL,2023-07-27
104,gizo,-8.103,156.8419,80.44,87,100,17.63,SB,2023-07-27
105,kodinsk,58.6881,99.1844,79.34,48,16,4.99,RU,2023-07-27
106,cabo san lucas,22.8909,-109.9124,85.06,77,20,11.5,MX,2023-07-27
107,qianjiang,30.4151,112.8859,89.53,68,73,8.37,CN,2023-07-27
108,st. john's,47.5649,-52.7093,65.57,80,100,19.57,CA,2023-07-27
109,corner brook,48.9667,-57.9484,66.36,99,43,5.17,CA,2023-07-27
110,hithadhoo,-0.6,73.0833,83.07,78,35,15.28,MV,2023-07-27
111,iqaluit,63.7506,-68.5145,44.33,87,75,6.91,CA,2023-07-27
112,walvis bay,-22.9575,14.5053,50.95,93,100,11.5,NA,2023-07-27
113,leava,-14.3,-178.1667,79.25,73,85,13.6,WF,2023-07-27
114,isafjordur,66.0755,-23.124,44.33,88,98,11.83,IS,2023-07-27
115,kidal,18.4411,1.4078,89.56,38,78,8.75,ML,2023-07-27
116,salekhard,66.53,66.6019,62.76,93,100,9.1,RU,2023-07-27
117,fuyang,32.9,115.8167,92.68,59,7,9.55,CN,2023-07-27
118,wailua homesteads,22.0669,-159.378,79.14,78,40,16.11,US,2023-07-27
119,ola,59.5833,151.2833,62.15,98,100,7.65,RU,2023-07-27
120,pointe-noire,-4.7761,11.8635,68.54,94,14,3.56,CG,2023-07-27
121,susuman,62.7833,148.1667,48.54,83,100,5.28,RU,2023-07-27
122,namibe,-15.1961,12.1522,58.82,91,69,6.42,AO,2023-07-27
123,zarate,-34.0981,-59.0286,45.88,10,70,4.56,AR,2023-07-27
124,jeddah,21.5169,39.2192,91.26,58,0,4.61,SA,2023-07-27
125,mar del plata,-38.0023,-57.5575,48.16,85,40,18.01,AR,2023-07-27
126,igarka,67.4667,86.5833,77.11,57,1,9.35,RU,2023-07-27
127,aleksandrovsk-sakhalinskiy,50.8975,142.1561,67.44,84,93,4.09,RU,2023-07-27
128,luderitz,-26.6481,15.1594,54.01,67,0,7.05,NA,2023-07-27
129,newman,37.3138,-121.0208,83.59,37,0,1.01,US,2023-07-27
130,saint-philippe,-21.3585,55.7679,65.79,79,63,11.52,RE,2023-07-27
131,saldanha,-33.0117,17.9442,51.85,89,97,10.49,ZA,2023-07-27
132,naze,28.3667,129.4833,77.92,81,100,14.85,JP,2023-07-27
133,tara,56.8944,74.371,71.78,63,66,4.88,RU,2023-07-27
134,hamilton,39.1834,-84.5333,81.68,74,0,17.27,US,2023-07-27
135,archidona,37.0965,-4.3887,66.96,84,0,2.44,ES,2023-07-27
136,houlton,46.1262,-67.8403,72.68,72,100,6.91,US,2023-07-27
137,sinabang,2.4803,96.3801,84.13,71,79,3.15,ID,2023-07-27
138,bac kan,22.1333,105.8333,95.45,51,91,2.75,VN,2023-07-27
139,yokadouma,3.5167,15.05,68.92,99,99,0.81,CM,2023-07-27
140,nemuro,43.3236,145.575,68.41,88,100,9.17,JP,2023-07-27
141,castillos,-34.1667,-53.8333,48.2,84,0,12.39,UY,2023-07-27
142,as sulayyil,20.4607,45.5779,84.45,11,73,8.1,SA,2023-07-27
143,talnakh,69.4865,88.3972,79.21,45,52,5.61,RU,2023-07-27
144,saint-pierre,-21.3393,55.4781,65.88,82,75,6.91,RE,2023-07-27
145,fuli,46.7217,131.1394,88.09,54,98,12.39,CN,2023-07-27
146,claremont,34.0967,-117.7198,83.97,37,0,10.36,US,2023-07-27
147,ha'il,27.5219,41.6907,77.02,22,0,4.61,SA,2023-07-27
148,north ward,-19.2454,146.8075,73.31,68,20,18.41,AU,2023-07-27
149,cidreira,-30.1811,-50.2056,57.4,84,40,13.02,BR,2023-07-27
150,jinka,5.65,36.65,64.09,76,94,2.71,ET,2023-07-27
151,ruayer,43.0537,-5.5502,54.81,74,0,3.83,ES,2023-07-27
152,port alfred,-33.5906,26.891,60.42,86,61,18.95,ZA,2023-07-27
153,portage la prairie,49.9728,-98.2926,73.85,53,14,4.0,CA,2023-07-27
154,praia da vitoria,38.7333,-27.0667,71.85,88,20,6.98,PT,2023-07-27
155,boguchany,58.3814,97.4531,78.57,49,66,5.61,RU,2023-07-27
156,rampachodavaram,17.45,81.7667,80.51,97,100,5.06,IN,2023-07-27
157,olyokminsk,60.3736,120.4264,87.04,38,12,9.22,RU,2023-07-27
158,swift current,50.2834,-107.8014,67.01,34,0,6.91,CA,2023-07-27
159,tiksi,71.6872,128.8694,45.61,73,48,6.51,RU,2023-07-27
160,temiskaming shores,47.4938,-79.7153,66.0,97,80,0.85,CA,2023-07-27
161,kolasin,42.8223,19.5165,52.16,98,66,5.95,ME,2023-07-27
162,tual,-5.6667,132.75,78.85,82,57,19.86,ID,2023-07-27
163,albany,42.6001,-73.9662,71.64,83,100,5.28,US,2023-07-27
164,grand falls-windsor,48.9332,-55.6649,61.3,96,16,5.64,CA,2023-07-27
165,rebola,3.7167,8.8333,72.72,100,40,0.0,GQ,2023-07-27
166,petropavlovsk-kamchatsky,53.0452,158.6483,72.19,64,40,13.42,RU,2023-07-27
167,barentu,15.1139,37.5928,69.98,81,96,7.87,ER,2023-07-27
168,sorong,-0.8833,131.25,83.8,72,30,13.94,ID,2023-07-27
169,kalmunai,7.4167,81.8167,87.33,57,100,2.19,LK,2023-07-27
170,titao,13.7667,-2.0667,84.96,56,100,14.12,BF,2023-07-27
171,arraial do cabo,-22.9661,-42.0278,70.05,89,60,21.63,BR,2023-07-27
172,kushiro,42.975,144.3747,86.95,66,40,13.8,JP,2023-07-27
173,kolonia town,6.964,158.206,89.6,66,75,4.61,FM,2023-07-27
174,hatton,6.8916,80.5955,70.36,69,98,5.64,LK,2023-07-27
175,broome,42.2506,-75.833,73.72,74,40,9.22,US,2023-07-27
176,alice springs,-23.7,133.8833,74.75,46,75,16.11,AU,2023-07-27
177,puerto armuelles,8.2833,-82.8667,82.09,70,100,3.0,PA,2023-07-27
178,kurumkan,54.3,110.3,71.67,69,100,6.67,RU,2023-07-27
179,madimba,-10.4,40.3333,71.89,83,94,11.68,TZ,2023-07-27
180,college,64.8569,-147.8028,82.36,51,75,0.0,US,2023-07-27
181,yamada,39.4667,141.95,85.01,64,48,1.9,JP,2023-07-27
182,inari,68.906,27.0288,53.8,82,93,1.21,FI,2023-07-27
183,mgandu,-5.95,34.1333,53.76,69,91,7.18,TZ,2023-07-27
184,ancud,-41.8697,-73.8203,46.45,93,100,6.29,CL,2023-07-27
185,kapuskasing,49.4169,-82.4331,59.0,94,75,2.3,CA,2023-07-27
186,poronaysk,49.2167,143.1167,76.78,67,30,1.16,RU,2023-07-27
187,bongouanou,6.6486,-4.1992,71.13,99,87,1.92,CI,2023-07-27
188,constantia,44.1833,28.65,70.48,87,99,14.2,RO,2023-07-27
189,baoying,33.2292,119.3092,89.35,65,16,11.18,CN,2023-07-27
190,smithers,54.7804,-127.1743,66.52,48,40,10.36,CA,2023-07-27
191,tapes,-30.6733,-51.3958,53.69,87,18,9.89,BR,2023-07-27
192,fukuecho,32.6881,128.8419,86.36,74,40,9.22,JP,2023-07-27
193,vila franca do campo,37.7167,-25.4333,68.41,86,3,5.06,PT,2023-07-27
194,holualoa,19.6228,-155.9522,78.04,83,75,11.5,US,2023-07-27
195,constitucion,-35.3333,-72.4167,48.24,80,47,6.55,CL,2023-07-27
196,kataysk,56.289,62.5841,70.27,65,12,6.51,RU,2023-07-27
197,bubaque,11.2833,-15.8333,81.46,81,100,11.95,GW,2023-07-27
198,san patricio,28.017,-97.5169,83.95,75,53,12.3,US,2023-07-27
199,jatai,-17.8814,-51.7144,73.6,38,87,4.43,BR,2023-07-27
200,port elizabeth,-33.918,25.5701,57.49,82,0,14.97,ZA,2023-07-27
201,murray bridge,-35.1167,139.2667,67.12,46,100,14.79,AU,2023-07-27
202,timmins,48.4669,-81.3331,57.02,88,75,4.61,CA,2023-07-27
203,colonia,50.9333,6.95,59.58,77,0,9.22,DE,2023-07-27
204,klyuchi,52.2667,79.1667,74.19,40,100,10.63,RU,2023-07-27
205,ha tinh,18.3333,105.9,97.2,46,100,1.32,VN,2023-07-27
206,whitehorse,60.7161,-135.0538,63.3,78,75,6.91,CA,2023-07-27
207,udachny,66.4167,112.4,71.46,40,100,8.21,RU,2023-07-27
208,tralee,52.2704,-9.7026,60.08,99,100,6.02,IE,2023-07-27
209,carnarvon,-24.8667,113.6333,64.85,48,15,16.78,AU,2023-07-27
210,tipasa,36.5897,2.4475,76.69,72,2,4.09,DZ,2023-07-27
211,labuan,5.2767,115.2417,86.09,74,20,5.01,MY,2023-07-27
212,tazovsky,67.4667,78.7,67.24,68,10,2.04,RU,2023-07-27
213,antsiranana,-12.2787,49.2917,70.56,73,20,13.8,MG,2023-07-27
214,barra de santo antonio,-9.4047,-35.5072,69.08,84,52,2.86,BR,2023-07-27
215,polyarnyy,69.1989,33.4478,51.08,94,100,0.78,RU,2023-07-27
216,codrington,-38.2667,141.9667,60.55,64,6,17.76,AU,2023-07-27
217,sitka,57.0531,-135.33,60.69,82,100,0.0,US,2023-07-27
218,okhotsk,59.3833,143.3,65.7,78,82,5.37,RU,2023-07-27
219,sisimiut,66.9395,-53.6735,40.15,92,54,7.54,GL,2023-07-27
220,uhrichsville,40.3931,-81.3465,82.56,68,0,11.5,US,2023-07-27
221,byron bay,-28.65,153.6167,65.71,50,33,5.44,AU,2023-07-27
222,vokhtoga,58.8147,41.0461,63.23,94,82,7.47,RU,2023-07-27
223,nouadhibou,20.931,-17.0347,72.23,76,91,21.05,MR,2023-07-27
224,manismata,-2.4667,111.0333,88.47,50,34,6.42,ID,2023-07-27
225,dno,57.8277,29.9637,56.88,90,98,4.45,RU,2023-07-27
226,tarquinia,42.2482,11.7553,69.8,76,4,6.96,IT,2023-07-27
227,dubinino,55.6192,89.0911,75.96,49,11,0.72,RU,2023-07-27
228,kaeng khro,16.1086,102.2581,91.89,51,85,7.96,TH,2023-07-27
229,bata,1.8639,9.7658,75.78,90,96,7.02,GQ,2023-07-27
230,"laikit, laikit ii (dimembe)",1.4792,124.9735,88.65,55,20,11.5,ID,2023-07-27
231,det udom,14.906,105.0784,89.42,65,70,12.48,TH,2023-07-27
232,maues,-3.3836,-57.7186,76.44,61,10,0.81,BR,2023-07-27
233,jiagedaqi,50.4167,124.1167,71.02,93,100,8.61,CN,2023-07-27
234,nova sintra,14.8667,-24.7167,73.18,85,71,16.73,CV,2023-07-27
235,flin flon,54.7682,-101.865,52.02,95,100,10.92,CA,2023-07-27
236,kimry,56.8667,37.35,59.9,92,61,4.38,RU,2023-07-27
237,lumberton,34.6182,-79.0086,78.94,89,0,3.44,US,2023-07-27
238,alo,7.4178,6.7371,74.53,97,100,2.73,NG,2023-07-27
239,chifeng,42.2683,118.9636,91.06,40,21,12.15,CN,2023-07-27
240,skovorodino,53.9833,123.9167,86.29,37,99,7.85,RU,2023-07-27
241,bouna,9.2667,-3.0,72.16,95,94,4.72,CI,2023-07-27
242,onguday,50.75,86.15,78.17,42,77,3.29,RU,2023-07-27
243,horta,38.5333,-28.6333,72.01,96,63,8.01,PT,2023-07-27
244,burutu,5.3509,5.5076,76.69,90,100,4.85,NG,2023-07-27
245,craig,40.5153,-107.5464,67.03,48,0,4.61,US,2023-07-27
246,metlili chaamba,32.2667,3.6333,88.74,17,0,6.91,DZ,2023-07-27
247,riohacha,11.5444,-72.9072,77.88,89,96,5.32,CO,2023-07-27
248,bahua,25.85,80.6333,95.43,46,88,10.16,IN,2023-07-27
249,hamada,34.8833,132.0833,84.92,62,12,6.26,JP,2023-07-27
250,shchuchinsk,52.9333,70.2,70.75,63,21,9.53,KZ,2023-07-27
251,astrea,9.4983,-73.9759,74.61,97,99,3.11,CO,2023-07-27
252,east london,-33.0153,27.9116,62.35,73,78,7.11,ZA,2023-07-27
253,vernon,50.2581,-119.2691,72.16,34,2,2.3,CA,2023-07-27
254,yarkovo,57.4028,67.0786,71.2,60,2,4.79,RU,2023-07-27
255,wanlaweyn,2.6185,44.8938,73.42,85,99,12.44,SO,2023-07-27
256,coxen hole,16.3244,-86.5366,79.88,78,0,3.44,HN,2023-07-27
257,akrehamn,59.2667,5.1833,57.4,88,75,2.3,NO,2023-07-27
258,likasi,-10.9814,26.7333,52.75,61,30,3.53,CD,2023-07-27
259,sampit,-2.5333,112.95,89.6,47,71,5.17,ID,2023-07-27
260,luanda,-8.8368,13.2343,68.0,94,75,5.75,AO,2023-07-27
261,west bay,19.3667,-81.4167,84.9,84,40,4.61,KY,2023-07-27
262,yaren,-0.5472,166.916,84.02,76,42,9.48,NR,2023-07-27
263,pisco,-13.7,-76.2167,62.65,82,0,3.44,PE,2023-07-27
264,ixtapa,20.7,-105.2,79.83,89,75,4.61,MX,2023-07-27
265,margaret river,-33.95,115.0667,56.23,68,98,13.98,AU,2023-07-27
266,egilsstadir,65.2653,-14.3948,42.71,93,100,12.66,IS,2023-07-27
267,kristiansund,63.1115,7.732,57.85,94,100,6.91,NO,2023-07-27
268,manokwari,-0.8667,134.0833,83.57,71,47,6.98,ID,2023-07-27
269,agoo,16.0833,120.1,81.07,87,100,17.83,PH,2023-07-27
270,port blair,11.6667,92.75,86.04,79,40,12.66,IN,2023-07-27
271,kruisfontein,-34.0033,24.7314,48.88,92,54,6.46,ZA,2023-07-27
272,mount isa,-20.7333,139.5,78.57,50,7,11.5,AU,2023-07-27
273,waingapu,-9.6567,120.2641,82.27,55,7,12.39,ID,2023-07-27
274,rio grande,-32.035,-52.0986,52.95,88,1,13.73,BR,2023-07-27
275,cova figueira,14.8905,-24.2934,74.52,87,79,13.33,CV,2023-07-27
276,tadine,-21.55,167.8833,70.27,53,74,17.07,NC,2023-07-27
277,inhambane,-23.865,35.3833,64.47,70,20,5.23,MZ,2023-07-27
278,sandy,40.572,-111.8606,80.47,36,40,12.66,US,2023-07-27
279,waddan,29.1614,16.139,82.92,34,0,9.46,LY,2023-07-27
280,nar'yan-mar,67.6713,53.087,68.14,60,87,4.56,RU,2023-07-27
281,zeeland,51.4167,3.75,59.67,94,100,14.7,NL,2023-07-27
282,necochea,-38.5473,-58.7368,46.96,76,100,12.86,AR,2023-07-27
283,nagqu,31.5,92.0,43.9,83,100,3.33,CN,2023-07-27
284,gadzhiyevo,69.2551,33.3362,51.13,93,100,0.83,RU,2023-07-27
285,kununurra,-15.7667,128.7333,82.38,28,7,6.91,AU,2023-07-27
286,maymana,35.9214,64.7836,90.16,13,72,8.59,AF,2023-07-27
287,santarem,-2.4431,-54.7083,75.33,100,0,0.0,BR,2023-07-27
288,yerofey pavlovich,53.9667,121.9667,82.44,44,100,8.12,RU,2023-07-27
289,mournies,35.4764,24.0092,86.4,54,0,16.11,GR,2023-07-27
290,la passe,45.5549,-0.8967,64.63,94,20,6.6,FR,2023-07-27
291,crucecita,-28.95,-58.9833,49.95,84,88,5.03,AR,2023-07-27
292,idri,27.5,13.2667,81.41,13,0,1.19,LY,2023-07-27
293,port macquarie,-31.4333,152.9167,69.89,54,0,10.11,AU,2023-07-27
294,kailua-kona,19.6406,-155.9956,81.09,85,75,11.5,US,2023-07-27
295,singaraja,-8.112,115.0882,84.0,55,11,2.93,ID,2023-07-27
296,pimentel,-6.8367,-79.9342,71.89,83,0,12.66,PE,2023-07-27
297,aqadyr,48.2553,72.8483,82.47,33,97,13.22,KZ,2023-07-27
298,ruidoso,33.3317,-105.673,74.39,30,0,11.5,US,2023-07-27
299,aliganj,27.5,79.1833,91.94,55,93,8.81,IN,2023-07-27
300,hilo,19.7297,-155.09,80.11,83,40,9.22,US,2023-07-27
301,fort irwin,35.2627,-116.6848,99.93,11,0,17.27,US,2023-07-27
302,carutapera,-1.195,-46.02,76.28,89,38,5.35,BR,2023-07-27
303,fisterra,42.9049,-9.2629,64.18,83,55,7.38,ES,2023-07-27
304,matiri,-10.75,34.9,52.2,59,26,4.41,TZ,2023-07-27
305,vilyuysk,63.7553,121.6247,73.74,29,91,6.51,RU,2023-07-27
306,ta`u,-14.2336,-169.5144,78.19,73,91,11.86,AS,2023-07-27
307,hermanus,-34.4187,19.2345,52.95,84,0,7.11,ZA,2023-07-27
308,puerto aysen,-45.4,-72.7,38.03,99,100,1.03,CL,2023-07-27
309,revda,56.801,59.9303,66.7,76,35,6.26,RU,2023-07-27
310,grants pass,42.439,-123.3284,80.8,36,0,9.22,US,2023-07-27
311,rexburg,43.826,-111.7897,72.21,31,0,11.5,US,2023-07-27
312,island harbour,50.724,-1.2758,61.83,96,100,5.99,GB,2023-07-27
313,nsanje,-16.92,35.262,59.77,95,7,1.14,MW,2023-07-27
314,dakhla,23.6848,-15.958,67.44,90,0,23.38,EH,2023-07-27
315,kutum,14.2,24.6667,72.46,72,67,12.55,SD,2023-07-27
316,bucerias,20.75,-105.3333,80.58,89,75,4.61,MX,2023-07-27
317,qarauyl,48.9451,79.255,76.82,32,100,12.01,KZ,2023-07-27
318,kingston,17.997,-76.7936,84.67,80,40,16.11,JM,2023-07-27
319,las cruces,32.3123,-106.7783,95.72,18,0,9.22,US,2023-07-27
320,moncao,42.0789,-8.4808,64.94,97,2,1.68,PT,2023-07-27
321,tsiombe,-25.3,45.4833,64.45,58,0,12.93,MG,2023-07-27
322,morehead city,34.7229,-76.726,80.58,84,0,5.75,US,2023-07-27
323,vicksburg,32.3526,-90.8779,76.69,44,0,0.0,US,2023-07-27
324,isla del bosque,22.7333,-105.85,78.69,80,100,4.54,MX,2023-07-27
325,cabinda,-5.55,12.2,68.14,94,100,3.44,AO,2023-07-27
326,chul'man,56.8479,124.9104,77.68,51,31,5.59,RU,2023-07-27
327,navoloki,57.4657,41.9634,63.23,96,98,9.31,RU,2023-07-27
328,kenora,49.8167,-94.4337,68.97,73,100,12.66,CA,2023-07-27
329,geraldton,-28.7667,114.6,59.41,77,100,3.44,AU,2023-07-27
330,xining,36.6167,101.7667,62.76,72,100,4.18,CN,2023-07-27
331,midvagur,62.0511,-7.1939,47.23,81,100,9.22,FO,2023-07-27
332,sao joao da barra,-21.6403,-41.0511,70.97,86,99,13.85,BR,2023-07-27
333,port saint john's,-31.6229,29.5448,65.68,67,60,11.63,ZA,2023-07-27
334,boise,43.6135,-116.2035,85.32,29,0,6.91,US,2023-07-27
335,harstad,68.799,16.5293,56.14,88,61,4.0,NO,2023-07-27
336,wenchang,30.904,118.4887,92.95,54,11,11.32,CN,2023-07-27
337,minas de marcona,-15.2119,-75.1103,54.03,87,48,10.96,PE,2023-07-27
338,louis trichardt,-23.0439,29.9032,50.23,79,2,1.97,ZA,2023-07-27
339,el granada,37.5027,-122.4694,58.46,87,100,19.57,US,2023-07-27
340,chipinge,-20.1883,32.6236,48.49,92,0,2.06,ZW,2023-07-27
341,glencoe,-28.1783,30.147,49.57,56,0,5.66,ZA,2023-07-27
342,bathsheba,13.2167,-59.5167,83.05,89,40,16.11,BB,2023-07-27
343,niceville,30.5169,-86.4822,82.89,70,0,3.44,US,2023-07-27
344,luena,-11.7833,19.9167,62.78,51,4,6.91,AO,2023-07-27
345,xiva,41.3783,60.3639,84.18,31,71,15.35,UZ,2023-07-27
346,zlynka,52.4267,31.7378,64.62,93,93,5.95,RU,2023-07-27
347,nantucket,41.2835,-70.0995,70.14,98,0,10.36,US,2023-07-27
348,gorontalo,0.5412,123.0595,87.26,61,83,10.89,ID,2023-07-27
349,cill airne,52.05,-9.5167,60.13,99,100,4.38,IE,2023-07-27
350,srbica,42.7467,20.7886,58.15,84,91,9.73,XK,2023-07-27
351,yuzhno-kurilsk,44.0306,145.8556,72.55,77,98,2.68,RU,2023-07-27
352,torghay,49.6339,63.4981,78.24,50,1,6.17,KZ,2023-07-27
353,tshabong,-26.05,22.45,48.81,43,0,5.99,BW,2023-07-27
354,ugoofaaru,5.6667,73.0,82.65,71,100,2.35,MV,2023-07-27
355,rossosh',51.1209,38.5116,70.32,73,57,7.54,RU,2023-07-27
356,watsa,3.0372,29.5355,63.25,99,99,1.92,CD,2023-07-27
357,christchurch,-43.5333,172.6333,51.8,55,17,17.27,NZ,2023-07-27
358,wuwei,37.9281,102.6414,84.96,28,100,9.57,CN,2023-07-27
359,suwayr,30.1171,40.3893,79.74,14,22,3.91,SA,2023-07-27
360,mbandaka,0.0487,18.2603,70.92,84,90,4.38,CD,2023-07-27
361,yinchuan,38.4681,106.2731,76.77,51,100,5.73,CN,2023-07-27
362,noumea,-22.2763,166.4572,73.99,99,32,18.61,NC,2023-07-27
363,pommelsbrunn,49.5044,11.511,46.69,87,100,4.16,DE,2023-07-27
364,copiapo,-27.3667,-70.3333,55.09,84,90,3.11,CL,2023-07-27
365,sanand,22.9833,72.3833,84.42,73,100,12.15,IN,2023-07-27
366,turaif,31.6725,38.6637,79.05,25,0,4.61,SA,2023-07-27
367,paros,37.0833,25.15,81.63,76,0,8.05,GR,2023-07-27
368,fale old settlement,-9.3852,-171.2468,83.48,73,50,16.67,TK,2023-07-27
369,teguise,29.0605,-13.564,68.22,68,75,10.36,ES,2023-07-27
370,chongwe,-15.3292,28.682,52.38,95,19,6.58,ZM,2023-07-27
371,vendome,47.8,1.0667,62.85,88,56,10.92,FR,2023-07-27
372,malyye derbety,47.9547,44.6808,82.44,38,0,4.52,RU,2023-07-27
373,aosta,45.7667,7.4167,44.49,59,4,2.91,IT,2023-07-27
374,moranbah,-22.0016,148.0466,68.74,57,73,18.03,AU,2023-07-27
375,twyford,51.4752,-0.8604,61.25,78,100,5.01,GB,2023-07-27
376,quellon,-43.1167,-73.6167,44.85,100,100,3.44,CL,2023-07-27
377,forster,-32.1667,152.5167,65.28,64,0,7.67,AU,2023-07-27
378,huambo,-12.7761,15.7392,58.8,47,2,2.3,AO,2023-07-27
379,vershino-darasunskiy,52.35,115.5167,65.03,78,87,5.77,RU,2023-07-27
380,al bawiti,28.3492,28.8659,80.74,36,21,4.74,EG,2023-07-27
381,laguna,38.421,-121.4238,81.36,48,0,9.22,US,2023-07-27
382,tofol,5.3248,163.0078,82.92,73,100,4.45,FM,2023-07-27
383,prado,-17.3411,-39.2208,69.96,75,65,3.62,BR,2023-07-27
384,tarrafal de sao nicolau,16.5667,-24.3667,77.05,82,92,10.6,CV,2023-07-27
385,crane,31.3974,-102.3501,86.49,31,52,12.91,US,2023-07-27
386,kayangel,8.0823,134.7173,79.39,87,100,26.82,PW,2023-07-27
387,chibougamau,49.9168,-74.3659,65.82,72,75,6.15,CA,2023-07-27
388,wynyard,-41.0,145.7167,54.36,76,100,8.68,AU,2023-07-27
389,chayan,43.0297,69.3772,96.33,19,85,23.76,KZ,2023-07-27
390,kasama,-10.2129,31.1808,47.44,79,15,3.18,ZM,2023-07-27
391,mount pearl,47.5166,-52.7813,64.85,80,100,19.57,CA,2023-07-27
392,sao vicente,-23.9631,-46.3919,72.0,26,3,5.57,BR,2023-07-27
393,dawson creek,55.7666,-120.2362,56.84,94,100,11.5,CA,2023-07-27
394,kamina,-8.7386,24.9906,57.88,48,55,4.63,CD,2023-07-27
395,bridgewater,44.3835,-64.5155,67.66,88,29,10.36,CA,2023-07-27
396,rizokarpaso,35.6,34.375,82.06,69,0,6.73,CY,2023-07-27
397,nadvirna,48.6348,24.5694,53.1,89,100,10.4,UA,2023-07-27
398,westport,41.1415,-73.3579,75.15,80,0,12.66,US,2023-07-27
399,ust'-kulom,61.6864,53.6902,63.43,65,98,6.17,RU,2023-07-27
400,quelimane,-17.8786,36.8883,64.35,94,0,3.44,MZ,2023-07-27
401,hafar al-batin,28.4328,45.9708,90.18,17,0,3.44,SA,2023-07-27
402,lerwick,60.1545,-1.1494,48.2,87,0,2.01,GB,2023-07-27
403,rosetta,31.4044,30.4164,79.16,70,0,4.65,EG,2023-07-27
404,al qadarif,14.0349,35.3834,72.21,89,100,8.93,SD,2023-07-27
405,coron,11.9986,120.2043,84.02,79,96,19.04,PH,2023-07-27
406,suomussalmi,64.8869,28.9078,56.8,79,57,2.37,FI,2023-07-27
407,vadso,70.0744,29.7487,50.16,93,100,5.75,NO,2023-07-27
408,malango,-2.9627,119.9001,82.11,52,26,4.07,ID,2023-07-27
409,hotan,37.0997,79.9269,88.72,24,63,4.5,CN,2023-07-27
410,ebaye,8.7748,167.7392,86.02,74,75,5.75,MH,2023-07-27
411,rio branco,-9.9747,-67.81,72.21,83,0,2.3,BR,2023-07-27
412,lobito,-12.3481,13.5456,67.48,87,29,6.91,AO,2023-07-27
413,mopti,14.6667,-4.0,86.04,74,0,4.61,ML,2023-07-27
414,afaahiti,-17.75,-149.2833,75.07,83,61,5.66,PF,2023-07-27
415,capelinha,-17.6914,-42.5158,60.31,96,99,2.89,BR,2023-07-27
416,obo,5.3998,26.4869,67.53,98,100,4.29,CF,2023-07-27
417,tocopilla,-22.092,-70.1979,62.44,76,45,3.47,CL,2023-07-27
418,san antonio de pale,-1.4014,5.6325,73.15,90,100,11.39,GQ,2023-07-27
419,mil'kovo,55.6078,37.7956,62.29,79,58,1.92,RU,2023-07-27
420,glubokiy,48.5217,40.3258,75.63,48,1,8.52,RU,2023-07-27
421,chui,-33.6971,-53.4616,47.73,87,0,11.39,UY,2023-07-27
422,bohicon,7.1783,2.0667,72.27,98,72,5.64,BJ,2023-07-27
423,taoudenni,22.6783,-3.9836,96.87,28,44,8.95,ML,2023-07-27
424,dudinka,69.4058,86.1778,79.63,53,71,6.06,RU,2023-07-27
425,lakatoro,-16.0999,167.4164,74.28,72,94,19.98,VU,2023-07-27
426,saint-joseph,-21.3667,55.6167,64.78,80,81,9.64,RE,2023-07-27
427,kill devil hills,36.0307,-75.676,81.01,83,0,10.36,US,2023-07-27
428,haiku-pauwela,20.9219,-156.3051,80.56,75,40,27.63,US,2023-07-27
429,la ronge,55.1001,-105.2842,53.85,82,100,14.97,CA,2023-07-27
430,rengasdengklok,-6.1592,107.2981,86.13,59,94,6.26,ID,2023-07-27
431,tshikapa,-6.4167,20.8,70.09,37,40,2.04,CD,2023-07-27
432,konarka,19.9,86.1167,84.6,77,59,22.5,IN,2023-07-27
433,esikhaleni,-28.871,31.8996,60.91,71,0,12.62,ZA,2023-07-27
434,ciudad lazaro cardenas,17.9583,-102.2,82.53,77,74,5.26,MX,2023-07-27
435,ust-tsilma,65.441,52.1498,62.74,79,94,2.89,RU,2023-07-27
436,san luis,-33.295,-66.3356,48.83,45,96,6.58,AR,2023-07-27
437,barinas,8.6226,-70.2075,74.61,92,99,1.23,VE,2023-07-27
438,chistopol',55.3631,50.6424,74.21,60,22,12.44,RU,2023-07-27
439,khash,28.2211,61.2158,83.12,45,55,2.3,IR,2023-07-27
440,dunedin,-45.8742,170.5036,44.8,75,64,8.99,NZ,2023-07-27
441,brookings,44.3114,-96.7984,81.3,68,0,6.91,US,2023-07-27
442,sosnogorsk,63.6023,53.8817,64.08,62,95,3.06,RU,2023-07-27
443,frontera,26.9333,-101.45,91.89,27,0,4.0,MX,2023-07-27
444,beyneu,45.3167,55.2,85.66,28,0,14.09,KZ,2023-07-27
445,qaqortoq,60.7167,-46.0333,44.29,81,94,8.16,GL,2023-07-27
446,sinop,41.7711,34.8709,72.86,42,0,12.03,TR,2023-07-27
447,kibre mengist,5.8833,38.9833,59.2,90,100,2.26,ET,2023-07-27
448,sengiley,53.9622,48.7944,73.47,55,33,12.33,RU,2023-07-27
449,terbanggi besar,-4.8667,105.2333,84.63,62,56,5.46,ID,2023-07-27
450,nadi,-17.8,177.4167,71.6,83,100,8.05,FJ,2023-07-27
451,ararat,39.8317,44.7049,75.54,47,0,0.83,AM,2023-07-27
452,san luis de la loma,17.2706,-100.8939,80.8,83,64,5.41,MX,2023-07-27
453,usogorsk,63.4106,48.6872,65.35,60,100,8.59,RU,2023-07-27
454,palmer,42.1584,-72.3287,72.0,75,20,12.66,US,2023-07-27
455,kamloops,50.6665,-120.3192,74.39,29,20,6.91,CA,2023-07-27
456,boende,-0.2167,20.8667,74.25,80,90,2.42,CD,2023-07-27
457,karpinsk,59.7654,60.0085,68.2,52,51,8.32,RU,2023-07-27
458,el calafate,-50.3408,-72.2768,25.27,70,100,1.7,AR,2023-07-27
459,halifax,44.6453,-63.5724,69.6,87,34,17.27,CA,2023-07-27
460,debila,33.5167,6.95,82.47,61,0,14.97,DZ,2023-07-27
461,keflavik,64.0049,-22.5624,48.63,87,0,8.05,IS,2023-07-27
462,waveland,30.2869,-89.3762,79.79,69,4,5.75,US,2023-07-27
463,hargeysa,9.56,44.065,69.12,61,95,31.23,SO,2023-07-27
464,saipan,15.1355,145.701,82.65,100,75,11.5,MP,2023-07-27
465,asau,46.4333,26.4,59.92,94,84,2.01,RO,2023-07-27
466,megion,61.0296,76.1136,64.02,74,95,10.0,RU,2023-07-27
467,labuan bajo,-8.4964,119.8877,83.73,56,10,7.52,ID,2023-07-27
468,jinchang,38.4953,102.1739,80.4,31,95,9.57,CN,2023-07-27
469,buka,40.8108,69.1986,97.52,12,2,11.01,UZ,2023-07-27
470,temax,21.15,-88.9333,76.87,94,66,5.08,MX,2023-07-27
471,benghazi,32.1167,20.0667,82.06,84,0,14.38,LY,2023-07-27
472,magnitogorsk,53.4186,59.0472,64.76,77,44,2.24,RU,2023-07-27
473,hadibu,12.65,54.0333,77.77,76,77,30.58,YE,2023-07-27
474,yanagawa,33.1667,130.4,93.09,58,20,4.61,JP,2023-07-27
475,carai,-17.1889,-41.6947,61.93,99,94,2.84,BR,2023-07-27
476,berdigestyakh,62.0989,126.6992,76.6,42,100,3.8,RU,2023-07-27
477,villa huidobro,-34.8383,-64.5869,46.02,56,100,6.29,AR,2023-07-27
478,aras-asan,8.8908,126.3033,86.52,65,100,4.07,PH,2023-07-27
479,amontada,-3.3617,-39.8317,73.62,90,5,5.53,BR,2023-07-27
480,gerash,27.6652,54.1371,82.54,50,31,3.62,IR,2023-07-27
481,erenhot,43.6475,111.9767,83.88,36,100,4.27,CN,2023-07-27
482,zhaotong,27.3167,103.7167,67.42,87,100,1.83,CN,2023-07-27
483,nuuk,64.1835,-51.7216,45.21,87,100,15.01,GL,2023-07-27
484,lycksele,64.5954,18.6735,53.47,94,75,0.0,SE,2023-07-27
485,juan griego,11.0817,-63.9655,82.53,78,98,11.5,VE,2023-07-27
486,oyama,36.3,139.8,98.35,30,3,5.68,JP,2023-07-27
487,nola,40.922,14.5329,70.23,89,2,3.4,IT,2023-07-27
488,tidjikja,18.5564,-11.4271,84.09,46,25,17.18,MR,2023-07-27
489,ifakara,-8.1333,36.6833,64.69,75,22,1.32,TZ,2023-07-27
490,katsuura,35.1333,140.3,84.22,70,48,9.8,JP,2023-07-27
491,hammond,41.5834,-87.5,79.39,83,75,0.0,US,2023-07-27
492,ambovombe,-25.1667,46.0833,63.36,63,0,14.88,MG,2023-07-27
493,bodo,67.28,14.405,56.44,92,0,3.44,NO,2023-07-27
494,cherdyn',60.403,56.4787,64.18,64,88,4.0,RU,2023-07-27
495,sumbe,-11.2061,13.8437,67.06,94,10,7.25,AO,2023-07-27
496,broken hill,-31.95,141.4333,68.72,31,15,19.19,AU,2023-07-27
497,darab,28.7519,54.5444,88.3,43,10,1.95,IR,2023-07-27
498,yeppoon,-23.1333,150.7333,73.18,66,40,18.84,AU,2023-07-27
499,petrolina,-9.3986,-40.5008,77.05,57,0,12.66,BR,2023-07-27
500,mariental,-24.6333,17.9667,51.51,19,0,8.1,NA,2023-07-27
501,cockburn town,21.4612,-71.1419,83.14,84,65,21.88,TC,2023-07-27
502,taroa,8.7058,171.2275,82.69,78,100,10.18,MH,2023-07-27
503,saynshand,44.8824,110.1163,82.96,25,11,10.4,MN,2023-07-27
504,fumel,44.4986,0.9651,61.79,94,0,1.48,FR,2023-07-27
505,vila velha,-20.3297,-40.2925,69.94,90,0,2.3,BR,2023-07-27
506,guatire,10.4762,-66.5427,79.2,97,97,3.47,VE,2023-07-27
507,masterton,-40.9597,175.6575,52.88,85,90,10.47,NZ,2023-07-27
508,peniche,39.3558,-9.3811,63.45,84,97,17.18,PT,2023-07-27
509,tangzhai,34.4328,116.5911,91.17,59,20,7.61,CN,2023-07-27
510,barth,54.3635,12.7249,55.06,92,39,15.19,DE,2023-07-27
511,kerikeri,-35.2268,173.9474,60.91,80,16,3.0,NZ,2023-07-27
512,rikaze,29.25,88.8833,50.47,83,100,2.24,CN,2023-07-27
513,zaozersk,69.4005,32.4476,51.8,92,100,1.54,RU,2023-07-27
514,uravakonda,14.95,77.2667,73.56,86,100,20.09,IN,2023-07-27
515,kiruna,67.8557,20.2251,49.12,100,100,3.44,SE,2023-07-27
516,ratnagiri,16.9833,73.3,77.29,93,100,13.18,IN,2023-07-27
517,bac lieu,9.285,105.7244,86.41,66,100,20.42,VN,2023-07-27
518,severo-yeniseyskiy,60.3725,93.0408,63.23,88,100,2.95,RU,2023-07-27
519,south cleveland,35.1412,-84.8722,73.81,95,0,0.0,US,2023-07-27
520,tangalle,6.024,80.7911,86.16,67,100,11.23,LK,2023-07-27
521,oguta,5.7089,6.8103,74.46,98,100,3.27,NG,2023-07-27
522,menongue,-14.6585,17.691,52.29,53,1,5.68,AO,2023-07-27
523,galliano,29.4422,-90.2992,81.03,69,1,6.26,US,2023-07-27
524,zhanaozen,43.3,52.8,79.72,50,0,11.23,KZ,2023-07-27
525,magong,23.5654,119.5863,85.06,82,100,21.3,TW,2023-07-27
526,da nang,16.0678,108.2208,94.98,49,0,3.44,VN,2023-07-27
527,virrat,62.2476,23.78,59.95,81,100,3.29,FI,2023-07-27
528,aripuana,-9.1667,-60.6333,72.82,57,12,1.32,BR,2023-07-27
529,bikenibeu village,1.3673,173.1241,87.76,70,20,6.91,KI,2023-07-27
530,xai-xai,-25.0519,33.6442,56.55,88,0,7.94,MZ,2023-07-27
531,mount pleasant,32.7941,-79.8626,77.99,91,0,0.0,US,2023-07-27
532,mont-dore,-22.2833,166.5833,73.38,64,38,16.17,NC,2023-07-27
533,balabac,7.9868,117.0645,85.87,69,57,17.56,PH,2023-07-27
534,sainyabuli,19.25,101.75,92.91,47,40,1.21,LA,2023-07-27
535,cocachacra,-17.0883,-71.7575,61.25,90,44,2.46,PE,2023-07-27
536,tannum sands,-23.9504,151.3693,75.09,41,75,18.41,AU,2023-07-27
537,la mira,18.035,-102.3266,80.28,82,80,4.61,MX,2023-07-27
538,oranjemund,-28.55,16.4333,52.14,72,0,5.61,NA,2023-07-27
539,shimoda,34.6667,138.95,91.11,69,32,8.14,JP,2023-07-27
540,flying fish cove,-10.4217,105.6791,76.68,88,100,12.66,CX,2023-07-27
541,changli,39.7042,119.1506,86.56,64,54,7.92,CN,2023-07-27
542,makushino,55.2103,67.2442,73.63,52,24,5.66,RU,2023-07-27
543,baiao,-2.7906,-49.6717,75.4,74,27,1.92,BR,2023-07-27
544,linares,-35.85,-71.6,42.22,91,34,1.97,CL,2023-07-27
545,bethanie,-26.4833,17.15,43.93,48,0,5.88,NA,2023-07-27
546,puerto quijarro,-17.7833,-57.7667,77.02,42,86,3.13,BO,2023-07-27
547,tromso,69.6496,18.957,53.38,87,0,11.5,NO,2023-07-27
548,toliara,-23.35,43.6667,62.06,57,0,14.41,MG,2023-07-27
549,coahuayana de hidalgo,18.7,-103.6583,80.85,84,87,1.41,MX,2023-07-27
550,fortaleza,-3.7227,-38.5247,80.73,74,0,12.66,BR,2023-07-27
551,thinadhoo,0.5333,72.9333,83.86,76,88,13.73,MV,2023-07-27
552,bastos,-21.9219,-50.7339,69.37,45,37,3.38,BR,2023-07-27
553,korla,41.7597,86.1469,95.86,18,0,5.88,CN,2023-07-27
554,kone,-21.0595,164.8658,74.59,44,1,10.51,NC,2023-07-27
